STORE,STORE_NAME,LABEL_NAME,ADDRESS,GEO_LATITUDE,GEO_LONGITUDE,OPEN_TIME,CLOSE_TIME
10,Холидей,Холидей Классик,"630055, г. Новосибирск, ул. Героев труда, 18",54.865907,83.081147,8:00:00 AM,12:00:00 AM
11,Централь,Холидей Классик,"630132, г. Новосибирск, ул. Нарымская, 19",55.041875,82.906631,8:00:00 AM,12:00:00 AM
12,Крез,Холидей Классик,"630128, г. Новосибирск, ул. Демакова, 3",54.864088,83.101871,8:00:00 AM,12:00:00 AM
13,Витязь,Холидей Классик,"630017, г. Новосибирск, ул. Б. Богаткова, 206",55.033677,82.973313,8:00:00 AM,12:00:00 AM
15,Светлана,Холди,"630090, г. Новосибирск, ул. Кочубея, 3/1",55.106428,82.9555,8:00:00 AM,9:00:00 PM
16,Аквариум,Холидей Классик,"630111, г. Новосибирск, ул. Терешковой, 12",54.840889,83.102042,8:00:00 AM,12:00:00 AM
17,Меркурий,Холидей Классик,"630111, г. Новосибирск, ул. Кропоткина, 120/3",55.056156,82.931138,8:00:00 AM,12:00:00 AM
18,НТЦ Васхнил,Холидей Классик,"630501, р.п. Краснообск ""Новый торговый центр""",54.919296,82.983289,8:00:00 AM,12:00:00 AM
20,Глобус,Холидей Классик,"634006, г. Новосибирск, ул. Лазурная, 4/3",55.033754,83.009318,8:00:00 AM,12:00:00 AM
21,Васхнил 2,Сибириада,"630501, р.п.Краснообск 80                     ",54.919963,82.990992,8:00:00 AM,12:00:00 AM
24,Уют,Холидей Классик,"630105, г. Новосибирск, ул. Дуси Ковальчук, 89",55.055749,82.902041,8:00:00 AM,12:00:00 AM
25,Садко,Холидей Классик,"630105, г. Новосибирск, ул. Красный проспект, 96",55.05349,82.91495,8:00:00 AM,12:00:00 AM
26,ЦОТ,Холидей Классик,"634061, г. Томск, ул. Красноармейская, 44       ",56.475539,84.966954,круглосуточно ,
27,Вамир,Холидей Классик,"630064, г. Новосибирск, ул. Ветлужская, 24",54.854921,82.974355,8:00:00 AM,12:00:00 AM
30,Воскресенье,Холидей Классик,"656043, г. Барнаул, ул. Малая Олонская, 28",53.328853,83.796332,8:00:00 AM,12:00:00 AM
31,Мелодия,Холидей Классик,"630015, г. Новосибирск, ул. Трикотажная, 29",55.057574,82.97697,8:00:00 AM,12:00:00 AM
32,Стиль,Холидей Классик,"634063, г. Томск, ул. Суворова, 10",56.510269,85.025973,7:00:00 AM,12:00:00 AM
33,Каштак,Холди,"634057, г. Томск, ул. 79-ой Гвардейской Дивизии, 12",56.509946,84.978506,7:00:00 AM,11:00:00 PM
34,Стэлла,Холидей Классик,"630071, г. Новосибирск, ул. Колхидская, 11",54.989796,82.816477,8:00:00 AM,12:00:00 AM
35,Малышок,Холидей Классик,"633010, г. Бердск, ул. Горького, 6",54.759057,83.106677,8:00:00 AM,12:00:00 AM
36,Попова-Исакова,Холидей Классик,"656062, г. Барнаул, ул. Попова, 86/ул. Исакова, 260",53.367658,83.675293,8:00:00 AM,12:00:00 AM
37,Лидер,Холидей Классик,"656058, г. Барнаул, ул. Шумакова, 46",53.335984,83.676622,круглосуточно ,12:00:00 AM
40,НЖК,Холидей Классик,"630005, г. Новосибирск, ул. Семьи Шамшиных, 88",55.046424,82.928883,8:00:00 AM,12:00:00 AM
41,Вавилон,Холидей Классик,"656049, г. Барнаул, пр. Красноармейский, 72",53.339995,83.772868,8:00:00 AM,12:00:00 AM
43,Шукшина,Холидей Классик,"656060, г. Барнаул, ул. Шукшина, 28",53.365627,83.667558,8:00:00 AM,12:00:00 AM
45,Немировича-Данченко,Холидей Классик,"630087, г. Новосибирск, ул. Немировича Данченко, 142",54.988391,82.914752,8:00:00 AM,12:00:00 AM
46,Зорге,Холидей Классик,"630106, г. Новосибирск, ул. Зорге, 191",54.935012,82.915857,8:00:00 AM,12:00:00 AM
47,Пархоменко,Холидей Классик,"630136, г. Новосибирск, ул. Пархоменко, 90/1",54.987219,82.850163,8:00:00 AM,12:00:00 AM
49,Северо-Чемской,Холидей Классик,"630066, г. Новосибирск, ул. Комсомольская, 10",54.957495,82.964447,8:00:00 AM,12:00:00 AM
50,Волховская,Холидей Классик,"630107, г. Новосибирск, ул. Волховская, 30",54.969528,82.839707,8:00:00 AM,12:00:00 AM
52,Станционная 18-2,Холди,"630108, г. Новосибирск, ул. Станционная, 18/2",54.998101,82.864294,8:00:00 AM,9:00:00 PM
53,Меридиан,Холди,"630048, г. Новосибирск, ул. Сибиряков-Гвардейцев, 1",54.978446,82.897271,9:00:00 AM,10:00:00 PM
55,Титова 198,Сибириада,"630035, г. Новосибирск, ул. Титова, 198",54.98057,82.829143,8:00:00 AM,12:00:00 AM
57,Степная 61а,Сибириада,"630079, г. Новосибирск, ул. Степная, 61а",54.977491,82.86397,8:00:00 AM,12:00:00 AM
58,Вера (Зорге 18),Сибириада,"630106, г. Новосибирск, ул. Зорге, 18",54.933967,82.906946,8:00:00 AM,12:00:00 AM
59,Зорге 118,Сибириада,"630106, г. Новосибирск, ул. Зорге, 118",54.937267,82.919729,8:00:00 AM,10:00:00 PM
60,Петухова,Сибириада,"630088, г. Новосибирск, ул. Петухова, 76",54.939941,82.912533,8:00:00 AM,10:00:00 PM
61,Никитина 62,Сибириада,"630008, г. Новосибирск, ул. Никитина, 62",55.011717,82.960414,8:00:00 AM,12:00:00 AM
64,Трикотажная,Сибириада,"630084, г. Новосибирск, ул. Трикотажная, 55",55.068561,82.962381,8:00:00 AM,12:00:00 AM
65,Дуси Ковальчук 378а,Сибириада,"630075, г. Новосибирск, ул. Дуси Ковальчук, 378а",55.063313,82.924328,8:00:00 AM,12:00:00 AM
67,Золотодолинская 2,Сибириада,"630090, г. Новосибирск, ул. Золотодолинская, 2",54.833526,83.103848,8:00:00 AM,12:00:00 AM
68,Шлюзовая 26,Сибириада,"630058, г. Новосибирск, ул. Шлюзовая, 26",54.852412,83.044694,8:00:00 AM,12:00:00 AM
69,Демакова 20,Сибириада,"630128, г. Новосибирск, ул. Демакова, 20",54.863223,83.1093,7:30:00 AM,12:00:00 AM
70,Русская 7,Сибириада,"630058, г. Новосибирск, ул. Русская, 7",54.848344,83.042142,8:00:00 AM,10:00:00 PM
72,Искитим2,Сибириада,"633208, г. Искитим, м-он Южный, 40а",54.611669,83.287894,8:00:00 AM,10:00:00 PM
73,Искитим3,Сибириада,"633210, г. Искитим, м-он Индустриальный, 13а",54.628293,83.306795,8:00:00 AM,10:00:00 PM
74,Бердск - Сибириада,Холди,"633011, г. Бердск, ул. Первомайская, 10/1",54.767757,83.099482,8:00:00 AM,9:00:00 PM
77,Бердск - 4,Сибириада,"633009, г. Бердск, Микрорайон, 54",54.743437,83.058222,8:00:00 AM,12:00:00 AM
80,Горный,Сибириада,"633411, пос. Горный, ул. Советская, 9",55.118344,83.880675,7:00:00 AM,11:00:00 PM
81,Барабинск,Сибириада,"632330, г. Барабинск, ул. Ермака, 12б",55.348007,78.337153,8:00:00 AM,11:00:00 PM
91,Омск Масленникова 183,Сибириада,"644009, г. Омск, ул. Масленникова, 183",54.975951,73.424276,8:00:00 AM,11:00:00 PM
92,Омск 12 Декабря 64,Сибириада,"644103, г. Омск, ул. 12 Декабря, 64",54.945562,73.339277,8:00:00 AM,12:00:00 AM
93,Омск 2 Поселковая 49,Сибириада,"644050, г. Омск, ул. 2-я Поселковая, 49",55.027567,73.300623,8:00:00 AM,12:00:00 AM
94,Омск Стальского 4,Сибириада,"644121, г. Омск, ул. Стальского, 4",54.938679,73.375003,8:00:00 AM,10:00:00 PM
95,Омск Молодогвардейская 3,Холди,"644058, г. Омск, ул. Молодогвардейская, 3",54.925458,73.453768,9:00:00 AM,10:00:00 PM
96,Омск Белозерова 10,Холди,"644100, г. Омск, ул. Белозерова, 10",55.044758,73.305303,9:00:00 AM,11:00:00 PM
101,Омск 5 Кордная 51,Холди,"644018, г. Омск, ул. 5-я Кордная, 51",54.959594,73.4677,9:00:00 AM,10:00:00 PM
102,Омск Мира 96,Холди,"644089, г. Омск, пр. Мира, 96",55.02926,73.251144,9:00:00 AM,10:00:00 PM
103,Омск Королева 12,Сибириада,"644045, г. Омск, ул. Королева, 12",55.038244,73.30194,8:00:00 AM,11:00:00 PM
107,ОмскДемьяна Бедного 69,Сибириада,"644030, г. Омск, ул. Демьяна Бедного, 69",54.925696,73.417332,8:00:00 AM,12:00:00 AM
108,Омск Омская 209,Сибириада,"644031, г. Омск, ул. Омская, 209",54.993045,73.429854,8:00:00 AM,11:00:00 PM
109,Омск 75 Гвардейской Бригады 2,Сибириада,"644076, г. Омск, ул. 75 Гвардейской Бригады, 2",54.973006,73.472192,8:00:00 AM,12:00:00 AM
110,Омск Авиагородок 12,Холди,"644103, г. Омск, ул. Авиагородок, 12 ",54.949756,73.326126,9:00:00 AM,10:00:00 PM
111,Колывань,Сибириада,"633161, пгт. Колывань, ул. Советская, 57",55.305062,82.740003,8:00:00 AM,10:00:00 PM
113,Омск Авангардная 5,Сибириада,"644052, г. Омск, ул. Авангардная, 5",55.018334,73.411214,8:00:00 AM,12:00:00 AM
114,Омск Нефтезаводская 27,Холди,"644053, г. Омск, ул. Нефтезаводская, 27",55.038294,73.26266,8:00:00 AM,11:00:00 PM
115,Омск Химиков 42,Сибириада,"644083, г. Омск, ул. Химиков, 42",55.050499,73.299662,8:00:00 AM,11:00:00 PM
117,Омск Мельничная 122,Сибириада,"644036, г. Омск, ул. Мельничная, 122",54.909572,73.311007,8:00:00 AM,10:00:00 PM
119,Омск Бульвар Зеленый 8,Планета Холидей,"644119, г.Омск, Бульвар Зеленый, 8",55.000585,73.290427,8:00:00 AM,11:00:00 PM
123,Магеллан,Холидей Классик,"633203, г. Искитим, ул. Лермонтова, 43",54.632541,83.30463,8:00:00 AM,12:00:00 AM
124,Томск-Северск,Сибириада,"636036, г. Северск, пр. Коммунистический, 71",56.598924,84.89057,7:00:00 AM,12:00:00 AM
125,Омск Лукашевича 10В,Холди,"644081, г. Омск, ул. Лукашевича, 10в",54.995421,73.272559,9:00:00 AM,10:00:00 PM
126,Омск-Маяк,Планета Холидей,"644119, г. Омск, пр-кт Комарова, 2/2",54.997709,73.282809,8:00:00 AM,10:00:00 PM
127,Куйбышев,Сибириада,"632382, г. Куйбышев, 9 квартал, 9",55.446166,78.328925,8:00:00 AM,10:00:00 PM
129,Искитим ТЦ Южный,Холидей Классик,"633208, г. Искитим, микрорайон Южный, 34",54.61827,83.287921,8:00:00 AM,12:00:00 AM
131,Крылова,Сибириада,"630005, г. Новосибирск, ул. Крылова, 53/1",55.042411,82.934075,8:00:00 AM,12:00:00 AM
133,Турне-Троллейный,Турне,"630045, г. Новосибирск, ул. Троллейная, 130а",54.966463,82.852966,8:00:00 AM,12:00:00 AM
134,Кольцово18А,Холидей Классик,"630559, р.п. Кольцово, Кольцово, 18а",54.942211,83.185172,8:00:00 AM,12:00:00 AM
135,Маяковского,Холидей Классик,"630046, г. Новосибирск, ул. Маяковского, 24",54.973879,83.085962,8:00:00 AM,12:00:00 AM
139,Холди-7,Холди,"652560, г. Полысаево, ул.Космонавтов, 88/1",54.608113,86.279132,8:00:00 AM,9:00:00 PM
141,Холди-5,Холди,"654038, г. Новокузнецк, ул. Тореза, 4",53.83619,87.177007,8:00:00 AM,9:00:00 PM
143,Минимаркет Кора 1,Минимаркет Кора,"652815, г. Осинники, ул. Ефимова, 10",53.59046,87.335991,8:00:00 AM,12:00:00 AM
145,Минимаркет Кора 3,Минимаркет Кора,"654025, г. Новокузнецк, ул. Дузенко, 41",53.797108,87.353175,8:00:00 AM,11:00:00 PM
147,Минимаркет Кора 5,Минимаркет Кора,"654007, г. Новокузнецк, Кузнецкстроевский пр-кт, 30а",53.763344,87.131696,8:00:00 AM,11:00:00 PM
148,ММ6 Новокузнецк Обнорского 19,Холди,"654034, г. Новокузнецк, ул. Обнорского, 19",53.775079,87.209184,8:00:00 AM,9:00:00 PM
149,Универсам Кора 1,Холидей Классик,"650060, г. Кемерово, б-р Строителей, 28",55.344853,86.167534,8:00:00 AM,12:00:00 AM
150,Универсам Кора 2,Универсам Кора,"650066, г. Кемерово, пр-кт Ленина, 64",55.344992,86.105344,8:00:00 AM,12:00:00 AM
151,Универсам Кора 4,Универсам Кора,"652500, г. Ленинск-Кузнецкий, пр. Кирова, 52",54.666786,86.167902,8:00:00 AM,11:00:00 PM
153,Универсам Кора 6,Универсам Кора,"650003, г. Кемерово, пр-кт Химиков, 39",55.343947,86.181413,8:00:00 AM,12:00:00 AM
154,Универсам Кора 7,Универсам Кора,"650055, г. Кемерово, ул. Сибиряков Гвардейцев, 18а",55.337696,86.071513,8:00:00 AM,12:00:00 AM
155,Универсам Кора 8,Универсам Кора,"654059, г. Новокузнецк, ул. Тореза, 95б",53.819338,87.156795,8:00:00 AM,12:00:00 AM
157,Универсам Кора 10,Универсам Кора,"652600, г. Белово, ул. Октябрьская, 33а",54.417693,86.299784,8:00:00 AM,11:00:00 PM
158,Холди-2,Холди,"652612, г. Белово, ул. Песчаная, 2а",54.405175,86.307312,8:00:00 AM,9:00:00 PM
159,Универсам Кора 12,Универсам Кора,"654011, г. Новокузнецк, пр-кт Авиаторов, 35а",53.899451,87.120458,8:00:00 AM,12:00:00 AM
160,Универсам Кора 14,Универсам Кора,"654084, г. Новокузнецк, пр-кт Шахтеров, 19а",53.780857,87.288245,8:00:00 AM,12:00:00 AM
161,Супермаркет Кора 1,Супермаркет Кора,"650023, г. Кемерово, пр-кт Ленина, 116",55.346164,86.149478,8:00:00 AM,12:00:00 AM
162,Супермаркет Кора 2,Супермаркет Кора,"650036, г. Кемерово, пр-кт Ленина, 90/1",55.345555,86.127783,8:00:00 AM,12:00:00 AM
163,Супермаркет Кора 3,Супермаркет Кора,"652420, г. Березовский, пр-кт Шахтеров, 2а",55.665889,86.278945,8:00:00 AM,12:00:00 AM
164,Супермаркет Кора 4,Супермаркет Кора,"652723, г. Киселевск, ул. Мира, 4а",53.999796,86.561912,8:00:00 AM,12:00:00 AM
165,Супермаркет Кора 5,Супермаркет Кора,"650070, г. Кемерово, Молодежный пр-кт, 2",55.328801,86.124783,8:00:00 AM,12:00:00 AM
166,Супермаркет Кора 6,Супермаркет Кора,"650003, г. Кемерово, б-р Строителей, 42",55.339309,86.172538,8:00:00 AM,12:00:00 AM
168,Супермаркет Кора 8,Супермаркет Кора,"654041, г. Новокузнецк, ул. Транспортная, 49г",53.743049,87.127707,8:00:00 AM,12:00:00 AM
176,Холди,Холди,"630025, г. Новосибирск, Бердское шоссе, 61/1",54.959863,83.055419,8:00:00 AM,10:00:00 PM
178,Холди-1,Холди,"650065, г. Кемерово, Бульвар Строителей, 16",55.35052,86.162288,8:00:00 AM,9:00:00 PM
179,Европа,Холидей Классик,"656067, г. Барнаул, Павловский тракт, 251в",53.342006,83.682596,8:00:00 AM,12:00:00 AM
180,Холди-10,Холди,"654054, г. Новокузнецк, ул. Косыгина, 61",53.892251,87.130896,8:00:00 AM,9:00:00 PM
181,Супермаркет Кора 9,Супермаркет Кора,"654011, г. Новокузнецк, б-р Архитекторов, 14а",53.892686,87.114403,9:00:00 AM,12:00:00 AM
182,Холди Гоголя,Холди,"656056, г. Барнаул, ул. Гоголя, 41",53.334511,83.79423,8:00:00 AM,9:00:00 PM
184,Холди Троллейная,Холди,"630045, г. Новосибирск, ул. Троллейная, 130а",54.966463,82.852966,8:00:00 AM,9:00:00 PM
186,Холди-3,Холди,"652644, пос. Инской, ул. Липецкая, 23",54.422114,86.303692,8:00:00 AM,9:00:00 PM
187,Холди Красноармейский,Холди,"656049, г. Барнаул, Красноармейский проспект, 80",53.341532,83.771323,8:00:00 AM,9:00:00 PM
191,Холди-4,Холди,"650070, г. Кемерово, ул. Тухачевского, 45в",55.326947,86.130775,8:00:00 AM,9:00:00 PM
192,Холди Северск Транспортная,Холди,"636000, г. Северск, ул. Транспортная, 30",56.608665,84.886303,8:00:00 AM,10:00:00 PM
194,Холди Кошурникова,Холди,"630089, г. Новосибирск, ул. Кошурникова, 47",55.037025,82.979422,8:00:00 AM,9:00:00 PM
195,ГБШ,Просто Супермаркет,"630039, г. Новосибирск, Гусинобродсккое шоссе, 20",55.035379,83.002607,8:00:00 AM,10:00:00 PM
196,Холди-8,Холди,"652523, г. Ленинск-Кузнецкий, ул. Ленина, 90г",54.662396,86.134314,8:00:00 AM,9:00:00 PM
198,Холди-9,Холди,"654084, г. Новокузнецк, ул. Шахтеров, 12",53.780102,87.285631,8:00:00 AM,9:00:00 PM
199,Холди Нижнелуговая,Холди,"634009, г. Томск, ул. Нижне-Луговая, 4",56.515156,84.936887,8:00:00 AM,9:00:00 PM
200,Холди-11,Холди,"654018, г. Новокузнецк, ул. Кирова, 56",53.757004,87.144119,8:00:00 AM,9:00:00 PM
202,Комсомольский 102,Холидей Классик,"656038, г. Барнаул, ул. Комсомольский проспект, 102",53.346425,83.787699,8:00:00 AM,12:00:00 AM
203,Холди-12,Холди,"654002, г. Новокузнецк, ул. Разведчиков, 40",53.784087,87.319444,8:00:00 AM,9:00:00 PM
204,Холди-13,Холди,"650033, г. Кемерово, ул. Аллейная, 5а",55.399678,86.012027,8:00:00 AM,9:00:00 PM
205,Попова 114,Холидей Классик,"656065, г. Барнаул, ул. Попова 114",53.358255,83.673317,8:00:00 AM,12:00:00 AM
210,Барабинск Маркса,Холидей Классик,"632300, г. Барабинск, ул. Карла Маркса, 108",55.350151,78.346837,8:00:00 AM,11:00:00 PM
211,Холди Черепаново,Холди,"630126, г. Черепаново, ул. Пролетарская, 97а/2",54.226043,83.37513,8:00:00 AM,9:00:00 PM
212,Холди Выборная,Холди,"630126, г. Новосибирск, ул. Выборная, 122/3",55.000048,83.012157,8:00:00 AM,9:00:00 PM
214,Холди Дачная,Холди,"630082, г. Новосибирск, ул. Дачная, 60",55.06537,82.900595,8:00:00 AM,9:00:00 PM
215,Универсам Кора 16,Универсам Кора,"652718, г. Киселевск, ул. Студенческая, 8",54.00539,86.705427,8:00:00 AM,12:00:00 AM
216,Универсам Кора 17,Универсам Кора,"653052, г. Прокопьевск, ул. 10-мкр, 48",53.88221,86.614347,8:00:00 AM,12:00:00 AM
217,Супермаркет Кора 10,Супермаркет Кора,"650003, г. Кемерово, ул.Марковцева, 20",55.336621,86.188932,8:00:00 AM,12:00:00 AM
218,42К Кемерово Свободы 12,Холидей Классик,"650070, г. Кемерово, ул. Свободы, 12",55.329452,86.114408,8:00:00 AM,11:00:00 PM
219,Омск Звездная 2Б,Сибириада,"644073, г. Омск, ул. Звездная, 2б",54.9979,73.242619,8:00:00 AM,11:00:00 PM
220,Омск Фугенфирова 9А,Сибириада,"644081, г. Омск, ул. Фугенфирова, 9а",54.997073,73.264519,9:00:00 AM,11:00:00 PM
221,Холди-14,Холди,"652057, г. Юрга, ул. Волгоградская, 10",55.709723,84.921202,8:00:00 AM,9:00:00 PM
222,Омск Гашека 8,Планета Холидей,"644109, г. Омск, ул. Гашека, 8",54.90894,73.451576,8:00:00 AM,12:00:00 AM
223,Омск 20 Партсъезда 53А,Сибириада,"644077, г. Омск, ул. 20 Партсъезда, 53а",55.030813,73.263684,8:00:00 AM,11:00:00 PM
224,Железнодорожная 11,Сибириада,"630132, г. Новосибирск, ул. Железнодорожная, 11",55.045516,82.900038,8:00:00 AM,10:00:00 PM
226,Омск Нефтезаводская 19,Сибириада,"644065, г. Омск, ул. Нефтезаводская, 19",55.033873,73.267196,8:00:00 AM,11:00:00 PM
227,Омск 3-я Железнодорожная 11,Холди,"644023, г. Омск, ул. 3-я Железнодорожная, 11",54.943075,73.4412,9:00:00 AM,10:00:00 PM
228,Омск 75 Гвардейской Бригады 18А,Холди,"644076, г. Омск, ул. 75 Гвардейской Бригады, 18а",54.971698,73.478435,9:00:00 AM,10:00:00 PM
229,Ключи Березовая 6,Холди,"644516, пос. Ключи, ул. Березовая, 6",55.154681,73.21133,9:00:00 AM,10:00:00 PM
230,Омск Блюхера 14,Сибириада,"644045, г. Омск, ул. Блюхера, 14",55.033749,73.299599,9:00:00 AM,10:00:00 PM
232,Омск Взлетная 6,Холди,"644112, г. Омск, ул. Взлетная, 6",54.996035,73.298368,9:00:00 AM,10:00:00 PM
233,Омск Волочаевская 21,Сибириада,"644043, г. Омск, ул.Волочаевская, 21",54.998974,73.352357,8:00:00 AM,11:00:00 PM
234,Омск Ермолаева 3Б,Холди,"644076, г. Омск, ул. Ермолаева, 3б",54.978674,73.472372,8:00:00 AM,10:00:00 PM
235,Омск Жуковского 32,Планета Холидей,"644060, г. Омск, ул. Жуковского, 32",54.923673,73.408834,8:00:00 AM,11:00:00 PM
236,Омск Камерный Переулок 49,Сибириада,"644117, г. Омск, ул. Камерный Переулок, 49",54.95428,73.460415,8:00:00 AM,10:00:00 PM
237,Светлый Василия Маргелова 239/2,Сибириада,"644025, пос. Светлый, ул. Василия Маргелова, 239/2",54.886166,73.485469,8:00:00 AM,11:00:00 PM
238,Марьяновка Ленина 10,Холди,"646040, пос. Марьяновка, ул. Ленина, 10",54.960276,72.638942,8:00:00 AM,9:00:00 PM
239,55 Омск Входной 3/2,Сибириада,"644068, г. Омск, ул.Входной 3/2",54.951137,73.170178,9:00:00 AM,10:00:00 PM
240,Омск Входной 28/1,Сибириада,"644068, г. Омск, ул. Входной, 28/1",54.94893,73.173487,8:00:00 AM,11:00:00 PM
241,Омск Харьковская 9,Холди,"644041, г. Омск, ул. Харьковская, 9",54.946224,73.415733,9:00:00 AM,10:00:00 PM
242,Омск 2-я Поселковая 53,Холди,"644077, г. Омск, ул. 2-я Поселковая, 53",55.029131,73.29826,9:00:00 AM,10:00:00 PM
244,Омск 14-й Военный городок 147,Сибириада,"644098, г. Омск, 14-й Военный городок, 147",54.846042,73.403453,8:00:00 AM,11:00:00 PM
245,Омск 21-я Амурская 6Г,Сибириада,"644090, г. Омск, ул. 21-я Амурская, 6г",55.025137,73.41072,8:00:00 AM,12:00:00 AM
247,Омск Горячева 8,Холди,"644041, г. Омск, ул. Горячева, 8",55.043654,73.275533,9:00:00 AM,10:00:00 PM
248,Омск Иртышская Набережная 36,Холди,"644090, г. Омск, ул. Иртышская Набережная, 36",54.949978,73.379225,9:00:00 AM,10:00:00 PM
249,Омск Проспект Менделеева 39,Сибириада,"644090, г. Омск, ул. Проспект Менделеева, 39",55.041483,73.329962,8:00:00 AM,11:00:00 PM
253,ММ7 Новокузнецк Косыгина 7,Минимаркет Кора,"654054, г. Новокузнецк, ул. Косыгина, 7",53.888107,87.108887,8:00:00 AM,11:00:00 PM
254,Павловск Каменский тракт 15б,Холди,"659000, пос. Павловск, ул. Каменский тракт, 15б",53.333613,82.935764,8:00:00 AM,9:00:00 PM
255,Азово Советская 58,Сибириада,"646880, пос. Азово, ул. Советская, 58",54.704935,73.03253,8:00:00 AM,10:00:00 PM
256,Таврическое Ленина 65,Холди,"646800, пос. Таврическое, ул. Ленина, 65",54.584213,73.635793,9:00:00 AM,10:00:00 PM
257,54 Краснозерское Советская 4 корпус 3,Холди,"632902, рп. Краснозерское, ул. Советская, 4, корпус 3",53.976872,79.240302,8:00:00 AM,10:00:00 PM
258,Любино Пионерская 4А,Холди,"646150, пос. Любино, ул. Пионерская, 4а",55.207012,73.020681,8:00:00 AM,9:00:00 PM
260,Москаленки Комсомольская 63,Холди,"646070, пгт. Москаленки, ул. Комсомольская, 63",54.939336,71.938373,8:00:00 AM,9:00:00 PM
261,Кормиловка Кирова 42,Холди,"646970, пос. Кормиловка, ул. Кирова, 42",54.999382,74.094383,8:00:00 AM,9:00:00 PM
262,Омск Комкова 1,Планета Холидей,"644073, г. Омск, ул. Комкова, 1",54.99651,73.235225,8:00:00 AM,12:00:00 AM
263,Омск Заозерная 19,Сибириада,"644012, г. Омск, ул. Заозерная, 19, 1п",55.040298,73.313785,8:00:00 AM,12:00:00 AM
264,42К УК19 Кемерово Дружбы 35,Универсам Кора,"650024, г. Кемерово, ул. Дружбы, д. 35",55.313603,86.102083,8:00:00 AM,12:00:00 AM
265,Д15 Бачатский Шевцовой 61,Холди,"652642, пгт. Бачатский, ул. Шевцовой, 61",54.283901,86.099424,8:00:00 AM,9:00:00 PM
267,Томск Комсомольский 46,Холидей Классик,"634021, г. Томск, ул. Комсомольский проспект, 46",56.479421,84.982414,8:00:00 AM,10:00:00 PM
268,УК9 Кемерово Леонова 10,Универсам Кора,"650033, г. Кемерово, ул. Леонова, 10",55.393375,86.017704,8:00:00 AM,11:00:00 PM
269,Каргат Советская 203,Холди,"632402, г. Каргат, ул. Советская, 203",55.190811,80.232913,8:00:00 AM,9:00:00 PM
270,Молчаново Валикова 25,Холди,"636331, пос. Молчаново, ул. Валикова, 25",57.581542,83.761829,8:00:00 AM,9:00:00 PM
272,Линево Листвянская 6А,Холди,"633216, пгт. Линево, ул. Листвянская, 6а",54.455925,83.36868,8:00:00 AM,9:00:00 PM
273,55 Омск Кирова 20,Планета Холидей,"644012, г. Омск, ул. Кирова, 20",54.942366,73.423683,8:00:00 AM,12:00:00 AM
274,22 Славгород Ленина 26,Холди,"658820, г. Славгород, ул. Ленина, 26",52.984355,78.644099,8:00:00 AM,9:00:00 PM
275,55 Калачинск 30 лет Победы 5А,Холди,"646901, г. Калачинск, ул. 30 Лет Победы, 5а",55.043546,74.56519,9:00:00 AM,10:00:00 PM
276,"42Н Осинники ул. Советская, 5",Минимаркет Кора,"652811, г. Осинники, ул. Советская, 5",53.599336,87.334778,8:00:00 AM,11:00:00 PM
277,42Н Междуреченск ул. Юности 11,Холидей Классик,"652877, г. Междуреченск, ул. Юности, 11",53.683434,88.070318,8:00:00 AM,12:00:00 AM
278,42Н Новокузнецк Орджоникидзе 28А,Холидей Классик,"654005, г. Новокузнецк, ул. Орджоникидзе, 28а",53.762956,87.111196,8:00:00 AM,12:00:00 AM
279,42К Тяжинский Ленина 48,Холди,"652240, пгт. Тяжинский, ул. Ленина, 48",56.104828,88.510071,8:00:00 AM,9:00:00 PM
280,22 Барнаул Павловский тракт 60а/1,Сибириада,"656064, г. Барнаул, ул. Павловский тракт, 60а/1",53.34193,83.708216,8:00:00 AM,10:00:00 PM
286,22 Барнаул Павловский тракт 134б,Сибириада,"656057, г. Барнаул, ул. Павловский тракт, 134б",53.344489,83.680288,8:00:00 AM,10:00:00 PM
287,55 Омск Жукова 107,Планета Холидей,"644046, г. Омск, ул. Жукова, 107",54.968339,73.391424,8:00:00 AM,12:00:00 AM
288,42К СХ5 Зеленогорский Центральная 36-1,Холидей Классик,"652449, пгт. Зеленогорский, ул. Центральная, 36-1",55.006435,86.952428,8:00:00 AM,10:00:00 PM
289,70 Томск Иркутский тракт 118/1,Сибириада,"634062, г. Томск, ул. Иркутский тракт, 118/1",56.512434,85.040759,8:00:00 AM,10:00:00 PM
290,42Н СХ4 Междуреченск Шахтеров 35а,Холидей Классик,"652870, г. Междуреченск, пр-т Шахтеров, 35а",53.699829,88.037575,8:00:00 AM,12:00:00 AM
291,54 Новосибирск Балтийская 29,Холидей Классик,"630058, г. Новосибирск, ул. Балтийская, 29",54.854942,83.050658,8:00:00 AM,12:00:00 AM
294,22 Алтайское Советская 150,Холди,"659650, с. Алтайское, ул. Советская, 150",51.954324,85.337015,8:00:00 AM,9:00:00 PM
295,42К ММ9 п.Металлплощадка б-р Строителей 73,Сибириада,"650517, п. Металлплощадка, б-р Строителей, 73",55.320335,86.185779,8:00:00 AM,10:00:00 PM
296,70 Томск Розы Люксембург 101,Сибириада,"634026, г. Томск, ул. Розы Люксембург, 101",56.505704,84.951655,8:00:00 AM,10:00:00 PM
297,54 Куйбышев Маяковского 59,Холди,"632383, г. Куйбышев, ул. Маяковского, 59",55.447468,78.326849,8:00:00 AM,9:00:00 PM
299,55 Омск Богдана Хмельницкого 42/1,Планета Холидей,"644070, г. Омск, Омская, угол ул. Б.Хмельницкого, 114/42, корп. 2/1",54.953447,73.413496,8:00:00 AM,11:00:00 PM
300,55 Омск Проспект Менделеева 30,Сибириада,"644090, г. Омск, ул. Проспект Менделеева, 30",55.042855,73.321023,8:00:00 AM,11:00:00 PM
303,22 Славгород Карла Маркса 143,Сибириада,"658820, г. Славгород, ул. Карла Маркса, 143",52.995245,78.642365,8:00:00 AM,10:00:00 PM
304,42Н Междуреченск Интернациональная 43,Холидей Классик,"652884, г. Междуреченск, ул. Интернациональная, 43",53.686596,88.070372,8:00:00 AM,12:00:00 AM
306,42К Топки Горная 1г/3,Холди,"652300, г. Топки, ул. Горная, 1г/3",55.28339,85.63159,8:00:00 AM,9:00:00 PM
307,22 Бийск Ленина 252/2,Холидей Классик,"659306, г. Бийск, ул. Ленина, 252/2",52.545996,85.227222,8:00:00 AM,12:00:00 AM
308,22 Барнаул Попова 97,Холди,"656057, г. Барнаул, ул. Попова, 97",53.346871,83.673011,8:00:00 AM,9:00:00 PM
311,54 Сузун Ленина 52,Холди,"633623, пгт. Сузун, ул. Ленина, 52",53.777378,82.321271,8:00:00 AM,9:00:00 PM
312,70 Томск Киевская 9а,Сибириада,"634061, г. Томск, ул. Киевская, 9а",56.480972,84.975434,9:00:00 AM,9:00:00 PM
314,54 Бердск Первомайская 121,Холидей Классик,"633009, г. Бердск, ул. Первомайская, 121",54.741649,83.061564,8:00:00 AM,12:00:00 AM
315,55 Исилькуль Октябрьская 9Е,Холди,"646023, г. Исилькуль, ул. Октябрьская, 9Е",54.920351,71.275613,8:00:00 AM,9:00:00 PM
316,22 Барнаул Северо-Западная 155,Холди,"656052, г. Барнаул, ул. Северо-Западная, 155",53.35999,83.726784,8:00:00 AM,9:00:00 PM
317,54 Новосибирск Ленина 25,Сибириада,"630004, г. Новосибирск, ул. Ленина, 25",55.029931,82.904368,8:00:00 AM,10:00:00 PM
318,54 Новосибирск Орджоникидзе 35,Сибириада,"630099, г. Новосибирск, ул. Орджоникидзе, 35",55.031892,82.926358,8:00:00 AM,12:00:00 AM
319,54 Новосибирск Богдана Хмельницкого 12,Сибириада,"630075, г. Новосибирск, ул. Богдана Хмельницкого, 12",55.068257,82.940103,8:00:00 AM,10:00:00 PM
320,54 Новосибирск Планировочная 56,Холди,"630032, г. Новосибирск, ул. Планировочная, 56",54.996418,82.893992,8:00:00 AM,9:00:00 PM
321,54 Обь Строительная 19,Холди,"633102, г. Обь, ул. Строительная, 19",54.991898,82.704376,8:00:00 AM,9:00:00 PM
323,54 Новосибирск Комсомольская 2/2,Холди,"630066, г. Новосибирск, ул. Комсомольская, 2/2",54.955675,82.971616,8:00:00 AM,9:00:00 PM
324,42Н Междуреченск Строителей 46,Холди,"652870, г. Междуреченск, пр-т Строителей, 46",53.680586,88.083569,8:00:00 AM,9:00:00 PM
326,55 Шербакуль Советская 97,Холди,"646700, р.п. Щербакуль, ул. Советская, 97",54.629841,72.394043,8:00:00 AM,9:00:00 PM
328,55 Полтавка Победы 32А,Холди,"646740, пос. Полтавка, ул. Победы, 32а",55.296872,75.071211,8:00:00 AM,9:00:00 PM
329,54 Новосибирск Сухарная 35,Холидей Классик,"630000, г. Новосибирск, ул. Сухарная, 35",55.04678,82.873556,8:00:00 AM,12:00:00 AM
330,70 Томск Иркутский тракт 37Б,Холидей Классик,"634049, г. Томск, ул. Иркутский тракт, 37б",56.503592,85.012453,7:00:00 AM,10:00:00 PM
331,22 Рубцовск Ленина 85,Холди,"658200, г. Рубцовск, ул. Ленина, 85",51.501336,81.207917,8:00:00 AM,9:00:00 PM
332,22 Барнаул Исакова 234,Сибириада,"656055, г. Барнаул, ул. Георгия Исакова, 234",53.3666,83.684806,8:00:00 AM,10:00:00 PM
333,55 Омск Дианова 22,Холди,"644073, г. Омск, ул. Дианова, 22",54.995416,73.240822,9:00:00 AM,10:00:00 PM
334,42К Кемерово Инициативная 5а,Холди,"650001, г. Кемерово, ул. Инициативная, 5а",55.39338,86.001768,8:00:00 AM,9:00:00 PM
335,42К Белово Ленина 6,Холди,"652600, г. Белово, ул. Ленина, 6",54.420616,86.307554,8:00:00 AM,9:00:00 PM
336,55 Омск Гашека 16,Холди,"644109, г. Омск, ул. Гашека, 16",54.908883,73.447048,9:00:00 AM,10:00:00 PM
338,22 Камень-на-Оби Пушкина 25А,Сибириада,"658700, г. Камень-на-Оби, ул. Пушкина, 25а",53.791082,81.347677,8:00:00 AM,10:00:00 PM
339,42К Промышленная Коммунистическая 45А-1,Холди,"652380, пос. Промышленная, ул. Коммунистическая, 45а-1",54.908433,85.640349,8:00:00 AM,9:00:00 PM
340,42К Гурьевск Партизанская 24,Холди,"652785, г. Гурьевск, ул. Партизанская, 24",54.286556,85.967928,8:00:00 AM,9:00:00 PM
341,54 Краснозерское Октябрьская 5Г,Холди,"632902, с. Краснозерское, ул. Октябрьская, 5г",53.987457,79.239897,8:00:00 AM,9:00:00 PM
342,54 Евсино Гагарина 45а,Холди,"633220, ст. Евсино, ул. Гагарина, 45а",54.507495,83.333879,8:00:00 AM,9:00:00 PM
343,54 Карасук Тургенева 86,Холди,"632865, г. Карасук, ул. Тургенева, 86",53.738208,78.025285,8:00:00 AM,9:00:00 PM
344,70 Северск ул. Победы 12Б,Холидей Классик,"636019, г. Северск, ул. Победы, 12б",56.577719,84.920744,8:00:00 AM,11:00:00 PM
346,22 Белокуриха Советская 7/2,Холди,"659900, г. Белокуриха, ул. Советская, 7/2",51.998428,84.983186,8:00:00 AM,9:00:00 PM
347,55 Омск 22 Апреля 50,Сибириада,"644089, г. Омск, ул. 22 Апреля, 50",55.036024,73.255788,8:00:00 AM,10:00:00 PM
349,22 Барнаул Малахова 33А,Холди,"656036, г. Барнаул, ул. Малахова, 33а",53.377554,83.713723,8:00:00 AM,10:00:00 PM
351,22 Барнаул Солнечная Поляна 15,Холди,"656060, г. Барнаул, ул. Солнечная Поляна, 15",53.371,83.663561,8:00:00 AM,9:00:00 PM
352,54 Новосибирск Зорге 1А,Холидей Классик,"630088, г. Новосибирск, ул. Зорге, 1а",54.938188,82.898825,8:00:00 AM,10:00:00 PM
353,54 Новосибирск Есенина 1г,Холди,"630124, г. Новосибирск, ул. Есенина, 1г",55.05301,82.996858,8:00:00 AM,9:00:00 PM
354,42К Ленинск-Кузнецкий Пушкина 2,Холди,"652515, г. Ленинск-Кузнецкий, ул. Пушкина, 2",54.671461,86.179167,8:00:00 AM,9:00:00 PM
355,42К Гурьевск Коммунистическая 4а,Холди,"652782, г. Гурьевск, ул. Коммунистическая, 4а",54.28172,85.93284,8:00:00 AM,9:00:00 PM
356,22 Барнаул Куйбышева 6,Холди,"656906, г. Барнаул, ул. Куйбышева, 6",53.25535,83.691328,8:00:00 AM,9:00:00 PM
357,22 Павловск Калинина 16,Холидей Классик,"659000, пос. Павловск, ул. Калинина, 16",53.31531,82.997029,8:00:00 AM,10:00:00 PM
358,22 Сибирский Строителей 18,Холди,"658076, пос. Сибирский, ул. Строителей, 18",53.767059,87.109471,8:00:00 AM,9:00:00 PM
359,55 Омск Туполева 5/1,Сибириада,"644112, г. Омск, ул. Туполева, 5 к. 1",54.994538,73.305411,8:00:00 AM,12:00:00 AM
360,70 Северск Победы 29,Сибириада,"636013, г. Северск, ул. Победы, 29",56.577655,84.923852,8:00:00 AM,10:00:00 PM
362,55 Омск Химиков 52,Сибириада,"644083, г. Омск, ул. Химиков, 52",55.053134,73.303156,8:00:00 AM,11:00:00 PM
364,42К Гурьевск 30 лет Победы 42,Холидей Классик,"652785, г. Гурьевск, ул. 30 лет Победы, 42",54.285678,85.94468,8:00:00 AM,10:00:00 PM
365,42К Анжеро-Судженск Коминтерна 26,Холди,"652472, г. Анжеро-Судженск, ул. Коминтерна, 26",56.124441,86.030217,8:00:00 AM,9:00:00 PM
366,42Н Новокузнецк Клименко 29/4,Холидей Классик,"654038, г. Новокузнецк, ул. Клименко, 29/4",53.828629,87.159184,8:00:00 AM,11:00:00 PM
369,55 Омск Вокзальная 27,Холди,"644005, г. Омск, ул. Вокзальная, 27",54.940789,73.396563,9:00:00 AM,10:00:00 PM
371,54 Тогучин Садовая 9/1,Холди,"633450, г. Тогучин, ул. Садовая, 9/1",55.240143,84.407303,8:00:00 AM,9:00:00 PM
373,22 Барнаул Кулагина 44,Холди,"656012, г. Барнаул, ул. Кулагина, 44",53.378279,83.789523,8:00:00 AM,9:00:00 PM
374,55 Омск Краснознаменная 24,Сибириада,"644013, г. Омск, ул. Краснознаменная, 24",55.03589,73.459148,8:00:00 AM,11:00:00 PM
375,55 Омск Труда 49,Сибириада,"644121, г. Омск, ул. Труда, 49",54.93225,73.371581,8:00:00 AM,12:00:00 AM
376,55 Омск Лукашевича 21А,Холди,"644092, г. Омск, ул. Лукашевича, 21а",54.99555,73.280572,9:00:00 AM,10:00:00 PM
377,22 Барнаул Привокзальная 12А,Холди,"656015, г. Барнаул, ул. Привокзальная, 12а",53.353138,83.759537,8:00:00 AM,9:00:00 PM
378,55 Светлый Маргелова 194/1,Сибириада,"644025, п. Светлый, ул. В.Маргелова, 194/1",54.989342,73.368212,8:00:00 AM,10:00:00 PM
380,55 Омск 22 Апреля 8,Сибириада,"644088, г. Омск, ул. 22 Апреля, 8",55.042525,73.289223,9:00:00 AM,11:00:00 PM
381,55 Омск Бульвар Архитекторов 10,Сибириада,"644112, г. Омск, Бульвар Архитекторов, 10",54.991981,73.307405,9:00:00 AM,10:00:00 PM
382,54 Болотное Вокзальная 9,Холди,"633340, г. Болотное, ул. Вокзальная, 9",55.667523,84.392634,8:00:00 AM,9:00:00 PM
383,54 Новосибирск Приморская 30А,Холди,"630098, г. Новосибирск, ул. Приморская, 30а",54.866124,82.991064,8:00:00 AM,9:00:00 PM
385,22 Благовещенка Советская 57,Холди,"658672, г. Благовещенка, ул. Советская, 57",52.829104,79.873623,8:00:00 AM,9:00:00 PM
386,55 Омск Волкова 3,Холди,"644045, г. Омск, ул. Волкова, 3",55.033754,73.304432,9:00:00 AM,10:00:00 PM
388,55 Омск Волховстроя 90,Сибириада,"644033, г. Омск, ул. Волховстроя, 90",55.010132,73.348296,8:00:00 AM,11:00:00 PM
390,70 Северск Калинина 157А,Холидей Классик,"636037, г. Северск, ул. Калинина, 157а",56.588511,84.929081,8:00:00 AM,11:00:00 PM
391,54 Новосибирск Героев Революции 35,Холидей Классик,"630046, г. Новосибирск, ул. Героев Революции, 35",54.975956,83.08209,8:00:00 AM,12:00:00 AM
392,42К Кемерово Тухачевского 31г,Холди,"650070, г. Кемерово, ул. Тухачевского, 31г",55.332857,86.125726,8:00:00 AM,10:00:00 PM
393,22 Бийск Ленина 312,Холди,"659306, г. Бийск, ул. Ленина, 312 ",52.545996,85.227222,8:00:00 AM,9:00:00 PM
394,54 Новосибирск Беловежская 4,Сибириада,"630024, г. Новосибирск, ул. Беловежская, 4",54.964618,82.897972,8:00:00 AM,10:00:00 PM
395,54 Довольное Набережная 10б,Холди,"632450, с. Довольное, ул. Набережная, 10б ",54.494251,79.669167,8:00:00 AM,9:00:00 PM
397,55 Омск Проспект Мира 88,Сибириада,"644077, г. Омск, ул. Проспект Мира, 88",55.02941,73.256219,9:00:00 AM,11:00:00 PM
398,55 Оконешниково Коммунистическая 99,Холди,"646940, р.п. Оконешниково, ул. Коммунистическая, 99",54.840224,75.077038,8:00:00 AM,9:00:00 PM
399,55 Омск 10 Чередовая 26/1,Сибириада,"644030, г. Омск, ул. 10 Чередовая, 26/1",54.921277,73.418203,8:00:00 AM,10:00:00 PM
400,55 Омск 21 Амурская 20в,Сибириада,"644086, г. Омск, ул. 21 Амурская, 20в",55.029766,73.416523,8:00:00 AM,10:00:00 PM
401,55 Омск Челюскинцев 104/1,Сибириада,"644052, г. Омск, ул. Челюскинцев, 104/1",55.013859,73.407459,8:00:00 AM,12:00:00 AM
402,55 Омск Ватутина 3,Сибириада,"644022, г. Омск, ул. Ватутина, 3",54.990122,73.271832,8:00:00 AM,11:00:00 PM
405,70 Северск Проспект Коммунистический 124а,Холди,"636037, г. Северск, ул. Проспект Коммунистический, 124а",56.58119,84.924562,8:00:00 AM,10:00:00 PM
406,55 Омск Глинки 1а,Сибириада,"644083, г. Омск, ул. Глинки, 1а",55.053191,73.308995,9:00:00 AM,10:00:00 PM
407,55 Омск 2 Солнечная 26,Холди,"644073, г. Омск, ул. 2 Солнечная, 26",54.996671,73.22114,9:00:00 AM,10:00:00 PM
408,55 Омск Бульвар Заречный 2,Сибириада,"644119, г. Омск, ул. Бульвар Заречный, 2",54.99932,73.28678,8:00:00 AM,10:00:00 PM
409,54 Маслянино Садовая 6,Холди,"633564, с. Маслянино, ул. Садовая, 6",54.346968,84.207464,8:00:00 AM,9:00:00 PM
411,55 Омск Ватутина 7В,Планета Холидей,"644022, г. Омск, ул. Ватутина, 7В",54.987782,73.275991,8:00:00 AM,12:00:00 AM
412,22 Барнаул Павловский тракт 275,Холидей Классик,"656067, г. Барнаул, Павловский тракт, 275",53.343543,83.66578,8:00:00 AM,12:00:00 AM
413,22 Новоалтайск 8-й микрорайон 29,Холидей Классик,"658080, г. Новоалтайск, 8-й микрорайон, 29",53.412633,83.931564,8:00:00 AM,12:00:00 AM
414,22 Новоалтайск Прудская 1А,Холидей Классик,"658080, г. Новоалтайск, ул. Прудская, 1А",53.421294,83.928977,8:00:00 AM,12:00:00 AM
415,22 Завьялово Советская 121,Холди,"658620, с. Завьялово, ул.Советская, 121",52.829971,80.903945,8:00:00 AM,9:00:00 PM
416,54 Новосибирск Выборная,Холидей Классик,"630126, г. Новосибирск, ул. Выборная, 99/11",55.006151,83.013585,8:00:00 AM,12:00:00 AM
417,55 Омск Волгоградская 24А,Сибириада,"644106, г. Омск, ул.Волгоградская, 24А",54.989936,73.261887,9:00:00 AM,10:00:00 PM
419,55 Калачинск Вокзальная 37,Холди,"646901, г. Калачинск, ул. Вокзальная, 37",55.044928,74.576976,8:00:00 AM,10:00:00 PM
420,54 Чулым Октябрьская 8в,Холди,"632551, г. Чулым, ул. Октябрьская, 8в",55.090067,80.975182,8:00:00 AM,9:00:00 PM
421,42К Гурьевск Р.Люксембург 64,Холидей Классик,"652785, г. Гурьевск, ул. Р.Люксембург, 64",54.283654,85.96703,8:00:00 AM,10:00:00 PM
423,54 Новосибирск Арбузова 2/3,Холди,"630117, г. Новосибирск, ул. Арбузова, 2/3",54.87044,83.108483,8:00:00 AM,9:00:00 PM
424,42К Верх-Чебула Советская 149,Холди,"652270, п.г.т. Верх-Чебула, ул. Советская, 149",56.034994,87.621098,8:00:00 AM,9:00:00 PM
425,55 Омск Дианова 27,Сибириада,"644106, г. Омск, ул. Дианова, 27",54.993737,73.242466,9:00:00 AM,10:00:00 PM
426,55 Омск Проспект Мира 42/1,Планета Холидей,"644050, г. Омск, ул. Мира, 42 корп.1",55.028637,73.287932,8:00:00 AM,12:00:00 AM
428,55 Омск 2 Кировская 96,Сибириада,"644082, г. Омск, ул. 2 Кировская, 96",54.927336,73.316532,8:00:00 AM,10:00:00 PM
429,55 Омск Завертяева 26к1,Холди,"644086, г. Омск, ул. Завертяева, 26 корпус 1",55.032573,73.459319,9:00:00 AM,10:00:00 PM
430,54 Новосибирск Писарева 60,Холди,"630005, г. Новосибирск, ул. Писарева, 60",55.049318,82.929664,8:00:00 AM,9:00:00 PM
432,55 Омск Худенко 3,Сибириада,"644027, г. Омск, ул. Худенко, 3",54.973744,73.435702,8:00:00 AM,11:00:00 PM
433,22 Рубцовск Красная 91,Холди,"658210, г. Рубцовск, ул. Красная, 91",51.498701,81.20445,8:00:00 AM,9:00:00 PM
434,55 Омск 3Транспортная 4к2,Сибириада,"644106, г. Омск, ул. 3-я Транспортная, 4 корпус 2",54.956745,73.411116,8:00:00 AM,10:00:00 PM
435,55 Омск Дианова 7к1,Холди,"644106, г. Омск, ул. Дианова, 7к1",54.993427,73.262453,9:00:00 AM,10:00:00 PM
436,22 Шипуново Октябрьская 38,Холди,"658390, с. Шипуново, ул. Октябрьская, 38",52.215589,82.267354,8:00:00 AM,9:00:00 PM
437,55 Омск Декабристов 116,Сибириада,"644046, г. Омск, ул. Декабристов, 116",54.966127,73.395521,8:00:00 AM,12:00:00 AM
439,55 Омск 70 лет Октября 19,Планета Холидей,"644074, г. Омск, ул. 70 лет Октября, 19",54.98103,73.321329,10:00:00 AM,11:00:00 PM
440,55 Омск Лукашевича 14/4,Планета Холидей,"644081, г. Омск, ул. Лукашевича, 14/4",54.996557,73.273871,8:00:00 AM,1:00:00 AM
441,55 Омск 10 лет Октября 109,Планета Холидей,"644070, г. Омск, ул. 10 лет Октября, 109",54.985612,73.403058,8:00:00 AM,12:00:00 AM
442,55 Омск Котельникова 12,Планета Холидей,"644121, г. Омск, ул. Котельникова, 12",54.935193,73.377267,8:00:00 AM,12:00:00 AM
443,55 Омск Ленина 30,Планета Холидей,"644010, г. Омск, ул. Ленина, 30",54.975925,73.377923,8:00:00 AM,12:00:00 AM
444,55 Омск Волховстроя 1,Планета Холидей,"644122, г. Омск, ул.Волховстроя, 1",55.001902,73.356309,8:00:00 AM,12:00:00 AM
445,55 Омск Бородина 12,Холди,"644083, г. Омск, ул. Бородина, 12",55.05135,73.31346,8:00:00 AM,12:00:00 AM
446,55 Омск Маяковского 48,Сибириада,"644046, г. Омск, ул. Маяковского, 48",54.970763,73.396931,8:00:00 AM,11:00:00 PM
447,55 Омск Кирова 7,Сибириада,"644041, г. Омск, ул. Кирова, 7",54.94913,73.418284,8:00:00 AM,12:00:00 AM
448,55 Омск Блюхера 22,Сибириада,"644045, г. Омск, ул. Блюхера, 22",55.036138,73.292736,8:00:00 AM,11:00:00 PM
449,55 Омск Крупской 8/1,Сибириада,"644119, г. Омск, ул. Крупской, 8/1",55.005351,73.295754,8:00:00 AM,12:00:00 AM
450,55 Омск Красный Путь 63,Планета Холидей,"644043, г. Омск, ул. Красный Путь, 63",54.996495,73.356579,8:00:00 AM,12:00:00 AM
451,22 Заринск Таратынова 14,Холди,"659100, г. Заринск, ул. Таратынова, 14",53.6996,84.932656,8:00:00 AM,9:00:00 PM
452,55 Омск Пригородная 5/2,Планета Холидей,"644077, г. Омск, ул. Пригородная, 5, корп.2",55.023625,73.267942,8:00:00 AM,12:00:00 AM
453,55 Лузино Комсомольская 4,Холди,"644504, с. Лузино, ул. Комсомольская, 4",54.947455,73.022046,9:00:00 AM,10:00:00 PM
454,55 Ростовка 21,Холди,"644527, п. Ростовка, 21",55.018176,73.578618,9:00:00 AM,10:00:00 PM
456,42К Ленинск-Кузнецкий Кирова 34Б,Холди,"652500, г. Ленинск-Кузнецкий, ул. Кирова, 34б",54.664526,86.167471,8:00:00 AM,9:00:00 PM
457,54 Новосибирск Курчатова 7/1,Холди,"630129, г. Новосибирск, ул. Курчатова, 7/1",55.104723,82.965992,8:00:00 AM,9:00:00 PM
458,55 Омск Академика Павлова 22,Сибириада,"644005, г. Омск, ул. Академика Павлова, 22",54.940934,73.389295,8:00:00 AM,12:00:00 AM
460,22 Бийск Горького 132,Холди,"659301, г. Бийск, ул. Горького 132",52.533858,85.245997,8:00:00 AM,9:00:00 PM
461,22 Горно-Алтайск Чорос-Гуркина 27,Холди,"649002, г.Горно-Алтайск, ул.Чорос-Гуркина, 27",51.955960297,85.958197832,8:00:00 AM,9:00:00 PM
462,54 Новосибирск Ольги Берггольц 39,Сибириада,"630068, г.Новосибирск, ул.Ольги Берггольц, 39",54.941182,83.105842,8:00:00 AM,10:00:00 PM
463,54 Новосибирск Петухова 12/1,Холди,"630119, г.Новосибирск, ул.Петухова, 12/1",54.941208,82.891459,9:00:00 AM,10:00:00 PM
464,54 Купино Советов 81,Холди,"632735, г. Купино, ул. Советов, 81",54.364079,77.293499,8:00:00 AM,9:00:00 PM
465,54 Карасук Комсомольская 2Г,Холди,"632862, г. Карасук, ул. Комсомольская, 2Г",53.722952,78.056582,8:00:00 AM,9:00:00 PM
466,54 Баган Сибиряков-Гвардейцев 52А,Холди,"632770, c. Баган, ул. Сибиряков-Гвардейцев, 52А",54.102739,77.663848,8:00:00 AM,9:00:00 PM
467,22 Рубцовск Ленина 204,Холди,"658225, г. Рубцовск, ул. Ленина, 204",51.485194,81.203845,8:00:00 AM,9:00:00 PM
468,55 Омск Омская 107,Сибириада,"644070, г. Омск, ул. Омская, 107",54.990685,73.400929,8:00:00 AM,11:00:00 PM
469,55 Омск Красный Путь 139А,Холди,"644033, г. Омск, ул. Красный Путь, 139а",55.010963,73.335891,9:00:00 AM,10:00:00 PM
470,54 Бердск Вокзальная 4/1,Холди,"633010, г. Бердск, ул. Вокзальная, 4/1",54.765877,83.106048,8:00:00 AM,9:00:00 PM
471,42К Анжеро-Судженск Лазо 10,Холди,"652486, г. Анжеро-Судженск, ул. Лазо, 10",56.05493,86.026831,8:00:00 AM,9:00:00 PM
472,42К Салаир Молодежная 3б,Холди,"652770, г. Салаир, ул. Молодежная, 3б",54.238142,85.810337,8:00:00 AM,9:00:00 PM
473,54 Убинское Салтыкова-Щедрина 15,Холди,"632520, с. Убинское, ул. Салтыкова, 15",55.303591,79.678922,8:00:00 AM,9:00:00 PM
475,22 Новоалтайск Гагарина 24,Холди,"658080, г. Новоалтайск, ул. Гагарина, 24",53.419717,83.928806,8:00:00 AM,9:00:00 PM
476,42К Полысаево Крупской 116А,Холди,"652560, г. Полысаево, ул. Крупской, 116а",54.603785,86.276491,8:00:00 AM,9:00:00 PM
478,22 Барнаул С. Семенова 9,Холди,"606650, г. Барнаул, ул. С. Семенова, 9",53.350521,83.67002,8:00:00 AM,9:00:00 PM
479,42К Ленинск-Кузнецкий Юргинская 4/3,Холди,"652523, г. Ленинск-Кузнецкий, ул. Юргинская, 4/3",54.706755,86.205371,8:00:00 AM,9:00:00 PM
483,22 Новоалтайск 8-ой микрорайон 3В,Холидей Классик,"658080, г. Новоалтайск, ул. 8-ой Микрорайон, 3В",53.412633,83.931564,8:00:00 AM,10:00:00 PM
484,22 Новоалтайск Октябрьская 20а,Холидей Классик,"658087, г. Новоалтайск, ул. Октябрьская 20а",53.391507,83.933918,8:00:00 AM,10:00:00 PM
485,22 Новоалтайск 7-ой микрорайон 2,Холди,"658087, г. Новоалтайск, ул. 7-ой Микрорайон, 2",53.412633,83.931564,8:00:00 AM,10:00:00 PM
487,22 Барнаул Малахова 126 А,Холди,"656066, г. Барнаул, ул.Малахова, 126А",53.344866,83.694885,8:00:00 AM,9:00:00 PM
489,55 Омск Романенко 8,Сибириада,"644076, г. Омск, ул. Романенко, 8",54.982306,73.47133,8:00:00 AM,11:00:00 PM
490,54 Куйбышев микрорайон Южный 1/1,Холди,"632387, Куйбышев, микрорайон Южный, 1/1",55.445972,78.311111,8:00:00 AM,9:00:00 PM
492,42Н Новокузнецк Кирова 55,Турне,"654080, г. Новокузнецк, ул. Кирова, 55",53.758665,87.13811,10:00:00 AM,10:00:00 PM
494,22 Тальменка Вокзальная 12з,Холди,"658030, р.п. Тальменка, ул. Вокзальная, 12з",53.821528,83.564549,8:00:00 AM,9:00:00 PM
495,54 Толмачево Победы 2,Холди,"633100, с. Толмачево, ул. Победы, 2",54.978932,82.734605,8:00:00 AM,9:00:00 PM
496,22 Майма Алтайская 26б,Холидей Классик,"649100, с. Майма, ул. Алтайская, 26б",51.989084,85.89662,8:00:00 AM,12:00:00 AM
497,22 Топчиха Ленина 3,Холди,"659070, с. Топчиха, ул. Ленина, 3",52.819937,83.119173,8:00:00 AM,9:00:00 PM
498,42К Яшкино Суворова 3а,Холди,"652010, п.г.т. Яшкино, ул. Суворова, 3а",55.873294,85.435892,8:00:00 AM,9:00:00 PM
499,54 Куйбышев Советская 8,Холди,"632386, г. Куйбышев, ул. Советская, 8",55.450654,78.298615,8:00:00 AM,9:00:00 PM
500,42К Белово Советская 122а,Холди,"652600, г. Белово, ул. Советская, 122а",54.405589,86.302182,8:00:00 AM,9:00:00 PM
501,22 Бийск Сенная 106/1,Холди,"659300, г. Бийск, ул. Сенная, 106/1",52.545508,85.213236,8:00:00 AM,9:00:00 PM
502,42Н Киселевск Лутугина 24а (пом.1),Холидей Классик,"652704, г. Киселевск, ул. Лутугина, 24а (пом.1)",54.034838,86.669,8:00:00 AM,11:00:00 PM
503,70 Моряковский Затон Ленина 14,Холди,"634516, г. Томск, с. Моряковский Затон, ул. Ленина, 14",56.694484,84.65752,8:00:00 AM,9:00:00 PM
504,54 Барабинск Деповская 20,Холди,"632331, г. Барабинск, ул. Деповская, 20",55.356601,78.348139,8:00:00 AM,9:00:00 PM
506,42К Кемерово Промышленновское шоссе 38б,Холди,"650904, г. Кемерово, ул. Промышленновское шоссе, 38б",55.496659,86.172376,8:00:00 AM,9:00:00 PM
507,42Н Новокузнецк Строителей 73а (пом.3),Холди,"654005, г. Новокузнецк, ул. Строителей, 73а (пом.3)",53.774728,87.124285,8:00:00 AM,9:00:00 PM
508,55 Омск 6-ая Станционная 147/3,Сибириада,"644120, г. Омск, ул. 6-ая Станционная, 147/3",54.926306,73.495261,8:00:00 AM,11:00:00 PM
509,42К Кемерово Ленинградский 21,Холди,"650060, г. Кемерово, пр. Ленинградский, 21",55.349373,86.172654,8:00:00 AM,9:00:00 PM
511,22 Рубцовск Комсомольская 250,Холди,"658200, г. Рубцовск, ул. Комсомольская, 250",51.505098,81.198817,8:00:00 AM,9:00:00 PM
512,22 Поспелиха Вокзальная 26,Холидей Классик,"659700, с. Поспелиха, ул. Вокзальная, 26",51.990853,81.825141,8:00:00 AM,10:00:00 PM
513,22 Михайловское К.Маркса 38,Холди,"658961, с. Михайловское, ул. К.Маркса, 38",51.821734,79.720963,8:00:00 AM,9:00:00 PM
514,54 Сузун Ленина 5,Холди,"633623, р.п. Сузун, ул. Ленина, 5",53.788716,82.312355,8:00:00 AM,9:00:00 PM
515,55 Черлак Победы 8,Холди,"646250, р.п. Черлак, ул. Победы, 8",54.155016,74.802555,8:00:00 AM,9:00:00 PM
516,54 Линево 4-ый Микрорайон 9а,Холди,"633216, пгт. Линево, ул. 4-ый Микрорайон, 9а",54.454103,83.379158,8:00:00 AM,9:00:00 PM
517,42К Кемерово Ракитянского 1а,Холди,"650014, г. Кемерово, ул. Ракитянского, 1а",55.418522,86.122205,8:00:00 AM,9:00:00 PM
518,22 Рубцовск Станционный 42г,Холди,"658206, г. Рубцовск, пер. Станционный, 42г",51.51841,81.189255,8:00:00 AM,9:00:00 PM
519,22 Горняк Миронова 134 (пом. 1),Холди,"658422, г. Горняк, ул. Миронова, 134, пом. 1",51.00749,81.468878,8:00:00 AM,9:00:00 PM
520,54 Здвинск Калинина 53г,Холди,"632951, с. Здвинск, ул.Калинина, 53г",54.703681,78.664311,8:00:00 AM,9:00:00 PM
521,42К Топки Горького 126,Холди,"652303, г. Топки, ул. Горького, 126",55.273174,85.597554,8:00:00 AM,9:00:00 PM
522,42Н Прокопьевск Морозовой 60,Холди,"653026, г. Прокопьевск, ул. Морозовой, 60",53.921695,86.710287,8:00:00 AM,9:00:00 PM
523,42К Краснобродский Гагарина 24,Холди,"652641, п.г.т. Краснобродский, ул. Гагарина, 24",54.161345,86.442158,8:00:00 AM,9:00:00 PM
524,22 Змеиногорск Ленина 32,Холди,"658480, г. Змеиногорск, ул. Ленина, 32",51.157913,82.193243,8:00:00 AM,9:00:00 PM
525,42К Анжеро-Судженск Мира 17,Холди,"652473, г. Анжеро-Судженск, ул. Мира, 17",56.110435,86.023929,8:00:00 AM,9:00:00 PM
526,42К Топки Красногорская 6б,Холди,"652305, г. Топки, ул. Красногорская, 6б",55.27997,85.637968,8:00:00 AM,9:00:00 PM
527,42К Белово 3-ий Микрорайон 130 (пом.2),Холди,"652632, г. Белово, ул. 3-ий Микрорайон, 130, пом.2",54.409383,86.281404,8:00:00 AM,9:00:00 PM
528,70 Тегульдет Пушкина 2,Холди,"636900, с. Тегульдет, ул. Пушкина, 2",57.306164,88.169754,8:00:00 AM,9:00:00 PM
529,22 Бийск Социалистическая 23/2,Холди,"659322, г. Бийск, ул. Социалистическая, 23/2",52.505341,85.136349,8:00:00 AM,9:00:00 PM
530,54 Новосибирск Бердское шоссе 548,Холди,"630097, г. Новосибирск, ул. Бердское шоссе, 548",54.816079,83.089996,8:00:00 AM,9:00:00 PM
531,54 Мошково Пушкина 1,Холди,"633131, п.г.т. Мошково, ул. Пушкина, 1",55.307034,83.604793,8:00:00 AM,9:00:00 PM
532,42Н Междуреченск Строителей 18 (пом. 1а),Холди,"652877, г. Междуреченск, пр-кт Строителей, 18, пом. 1а",53.687108,88.068511,8:00:00 AM,9:00:00 PM
533,70 Бакчар Советская 48,Холди,"636200, с. Бакчар, ул. Советская, 48",57.017389,82.061407,8:00:00 AM,9:00:00 PM
534,54 Новосибирск Ударная 29/1,Холди,"630052, г. Новосибирск, ул. Ударная, 29/1",54.965719,82.86256,8:00:00 AM,10:00:00 PM
535,42Н Новокузнецк Заводское 8,Холди,"654055, г. Новокузнецк, ш. Заводское, 8",53.791997,87.155016,8:00:00 AM,9:00:00 PM
538,55 Тара Радищева 4,Холди,"646532, г. Тара, ул. Радищева, 4",56.880096,74.395642,9:00:00 AM,10:00:00 PM
539,54 Новосибирск Владимировская 23,Холди,"630003, г. Новосибирск, ул. Владимировская, 23",55.039099,82.887129,8:00:00 AM,9:00:00 PM
541,42К Березовский 8-ое Марта 3а,Холди,"652420, г. Березовский, ул. 8-ое Марта, 3а",55.670329,86.276348,8:00:00 AM,9:00:00 PM
542,54 Ордынское Октябрьская 38,Холди,"633261, р.п. Ордынское, ул. Октябрьская, 38",54.363732,81.91013,8:00:00 AM,10:00:00 PM
544,42К Тайга Кирова 16,Холди,"652401, г. Тайга, ул. Кирова, 16",56.062258,85.620801,8:00:00 AM,9:00:00 PM
545,42К Белово Новый городок Глинки 5,Холди,"652645, г. Белово, пгт. Новый городок, ул. Глинки, 5",54.308582,86.290208,8:00:00 AM,9:00:00 PM
547,42К Ленинск-Кузнецкий Спасстанция 17,Холди,"652507, г. Ленинск-Кузнецкий, ул. Спасстанция, 17",54.695273,86.19999,8:00:00 AM,9:00:00 PM
548,22 Алейск Пионерская 158,Холди,"658135, г. Алейск, ул. Пионерская, 158",52.496093,82.770752,8:00:00 AM,9:00:00 PM
549,42Н Новокузнецк Запорожская 15 корпус 1,Холидей Классик,"654080, г. Новокузнецк, ул. Запорожская 15 корпус 1",53.761385,87.162319,8:00:00 AM,12:00:00 AM
550,54 Черепаново Цыцаркина 58А,Холди,"633521, г. Черепаново, ул. Цыцаркина, 58А         ",54.225822,83.398881,8:00:00 AM,9:00:00 PM
552,54 Новосибирск Курчатова 36,Холди,"630129, г. Новосибирск, ул. Курчатова, 36",55.105758,82.973951,8:00:00 AM,9:00:00 PM
553,22 Яровое А квартал 23,Холди,"658839, г. Яровое, А квартал, 23",52.916914,78.560034,8:00:00 AM,9:00:00 PM
554,22 Кулунда Советская 29А,Холди,"658920, с. Кулунда, ул. Советская, 29А   ",52.565444,78.946642,8:00:00 AM,9:00:00 PM
559,22 Горно-Алтайск Ленина 220,Холди,"649007, г. Горно-Алтайск, ул. Ленина, 220",51.932073,85.976687,8:00:00 AM,9:00:00 PM
560,54 Карасук Союзная 23А,Холди,"632865, г. Карасук, ул. Союзная, 23А",53.731567,78.027252,8:00:00 AM,9:00:00 PM
562,55 Называевск Мира 40,Холди,"646104, г. Называевск, ул. Мира, 40        ",55.560555,71.348772,8:00:00 AM,9:00:00 PM
563,54 Новосибирск Ключ-Камышенское Плато 7/1,Холидей Классик,"630114, г. Новосибирск, ул. Ключ-Камышенское Плато, 7/1",54.987033,83.040768,8:00:00 AM,12:00:00 AM
564,70 Белый Яр Гагарина 26,Холди,"636500, рп. Белый Яр, ул. Гагарина, 26",58.447155,85.040094,8:00:00 AM,9:00:00 PM
565,42К Кемерово Серебряный бор 1 пом. 111,Холди,"650014, г. Кемерово, ул. Серебряный бор, 1, пом. 111",55.401064,86.126777,8:00:00 AM,9:00:00 PM
566,54 Лебедевка Центральная 46,Холди,"633226, с. Лебедевка, ул. Центральная, 46",54.674288,83.237391,8:00:00 AM,9:00:00 PM
570,42К Березовский Мира 2А,Холди,"652421, г. Березовский, ул. Мира, 2а",55.663542,86.258425,8:00:00 AM,9:00:00 PM
571,42К Плотниково Школьная 6,Холди,"652383, пос. Плотниково, ул. Школьная, 6",55.015279,85.939038,8:00:00 AM,9:00:00 PM
572,42К Грамотеино Светлая 15,Холди,"652614, пгт. Грамотеино, ул. Светлая, 15",54.501075,86.37014,8:00:00 AM,9:00:00 PM
573,22 Ключи Пролетарская 114А,Холди,"658980, с. Ключи, ул. Пролетарская, 114А",52.237628,79.171185,8:00:00 AM,9:00:00 PM
574,42К Юрга Ленинградская 31,Холди,"652050, г. Юрга, ул. Ленинградская, 31",55.71805,84.919451,8:00:00 AM,9:00:00 PM
576,42Н Прокопьевск Шахтеров 10,Холди,"653000, г. Прокопьевск, ул. Шахтеров, 10",53.881701,86.752759,8:00:00 AM,9:00:00 PM
578,22 Рубцовск Ленина 74,Холидей Классик,"658210, г. Рубцовск, пр. Ленина, 74",51.514436,81.210001,8:00:00 AM,10:00:00 PM
579,22 Ключи Центральная 28,Холидей Классик,"658980, с. Ключи, ул. Центральная, 28",52.25261,79.168517,8:00:00 AM,10:00:00 PM
580,54 Коченево Кузнецкая 95а,Холди,"632640, рп. Коченево, ул. Кузнецкая, 95а",55.025214,82.194915,8:00:00 AM,9:00:00 PM
581,22 Барнаул Попова 24б,Холди,"656019, г. Барнаул, ул. Попова, 24б",53.376002,83.678841,8:00:00 AM,9:00:00 PM
582,54 Искитим Советская 52,Холди,"633209, г. Искитим, ул. Советская, 52",54.656563,83.296339,8:00:00 AM,9:00:00 PM
583,70 Первомайское Ленинская 85,Холди,"636930, с. Первомайское, ул. Ленинская, 85",57.075168,86.241572,8:00:00 AM,9:00:00 PM
584,70 Кривошеино Кирова 3,Холди,"636300, с. Кривошеино, ул. Кирова, 3",57.341409,83.937565,8:00:00 AM,9:00:00 PM
586,22 Ребриха Комсомольская 5,Холди,"658540, с. Ребриха, ул. Комсомольская, 5",53.071664,82.342418,8:00:00 AM,9:00:00 PM
588,22 Яровое Ленина 20 (Супермаркет 500),Холидей Классик,"658839, г. Яровое, ул. Ленина, 20",52.918788,78.574892,8:00:00 AM,9:00:00 PM
590,22 Поспелиха Первомайская 45,Холди,"659700, с. Поспелиха, ул. Первомайская, 45",51.985257,81.826857,8:00:00 AM,9:00:00 PM
593,22 Первомайское Комарова 1а,Холди,"658051, с. Первомайское, ул. Комарова, 1а",53.719985,84.01721,8:00:00 AM,9:00:00 PM
595,55 Омск Труда 1А,Холди,"644121, г. Омск, ул. Труда, 1а",54.933393,73.381875,9:00:00 AM,10:00:00 PM
596,54 Чистоозерное Покрышкина 6,Холди,"632720, р.п. Чистоозерное, ул. Покрышкина, 6",54.708572,76.58199,8:00:00 AM,9:00:00 PM
598,54 Новосибирск Бориса Богаткова 266/2,Холди,"630089, г. Новосибирск, ул. Бориса Богаткова, 266/2",55.041699,82.985171,8:00:00 AM,9:00:00 PM
603,54 Колывань Ленина 83,Холди,"633161, р.п. Колывань, ул. Ленина, 83",55.307116,82.740802,8:00:00 AM,9:00:00 PM
604,42К Итатский Советская 121а пом. 1,Холди,"652245, пгт Итатский, ул. Советская, 121а, пом. 1",56.072853,89.027503,8:00:00 AM,9:00:00 PM
605,22 Рубцовск Алтайская 93,Холди,"658218, г. Рубцовск, ул. Алтайская, 93",51.540195,81.230914,8:00:00 AM,9:00:00 PM
608,42К Кемерово Терешковой 30 пом. 1,Холидей Классик,"650036, г. Кемерово, ул. Терешковой, 30, пом. 1",55.342432,86.137431,8:00:00 AM,11:00:00 PM
609,22 Мамонтово Пушкинская 12/3,Холди,"658561, с. Мамонтово, ул. Пушкинская, 12/3",52.708574,81.629667,8:00:00 AM,9:00:00 PM
610,22 Турочак Советская 12,Холди,"649140, с. Турочак, ул. Советская, 12",52.250079,87.11646,8:00:00 AM,9:00:00 PM
611,22 Смоленское Гражданский 27,Холди,"659600, с. Смоленское, пер. Гражданский, 27",52.305268,85.0722,8:00:00 AM,9:00:00 PM
612,22 Новоалтайск 8-ой микрорайон 26а,Холди,"658080, г. Новоалтайск, ул. 8-ой мкр., 26а",53.411778,83.935995,8:00:00 AM,9:00:00 PM
613,42К  Кемерово Металлистов 18,Холди,"650052, г. Кемерово, ул. Металлистов, 18",55.401958,86.040638,8:00:00 AM,10:00:00 PM
614,42Н Новокузнецк Бардина 26 корп. 1,Холидей Классик,"654080, г. Новокузнецк, пр. Бардина, 26, корп. 1",53.751116,87.126108,8:00:00 AM,12:00:00 AM
615,55 Омск Космический 18д,Планета Холидей,"644027, г. Омск, пр. Космический, 18д",54.970236,73.448899,8:00:00 AM,12:00:00 AM
616,72 Абатское Зеленая 35а,Холди,"627540, с. Абатское, ул. Зеленая, 35а",56.284339,70.445615,8:00:00 AM,9:00:00 PM
617,42Н Прокопьевск Строителей 6,Холди,"653047, Прокопьевск, пр. Строителей, 6",53.864872,86.627355,8:00:00 AM,10:00:00 PM
618,70 Асино им. 370 Стрелковой Дивизии 1/1,Холди,"636840, г. Асино, ул. им. 370 Стрелковой Дивизии, 1/1",56.980876,86.164956,8:00:00 AM,10:00:00 PM
619,70 Северск Самусь Кирова 7,Холди,"634501, г. Северск, п. Самусь, ул. Кирова, 7",56.743819136,84.699526261,8:00:00 AM,9:00:00 PM
620,54 Искитим мкр. Южный,Холди,"633208, г. Искитим, ул. мкр. Южный, 16",54.613609,83.277258,8:00:00 AM,9:00:00 PM
621,70 Зырянское Советская 46а,Холди,"636850, с. Зырянское, ул. Советская, 46а, пом.1-12,23-27,30",56.830674,86.627974,8:00:00 AM,9:00:00 PM
624,54 Барышево Ленина 208,Холди,"630046, с. Барышево, ул. Ленина, 208",54.96975,83.200902,8:00:00 AM,9:00:00 PM
625,42К Кемерово Молодежный 15б пом. 51,Холидей Классик,"650070, г. Кемерово, пр. Молодежный, 15б, пом.51",55.324909,86.121567,8:00:00 AM,10:00:00 PM
626,54 Купино Железнодорожная 26/3,Холди,"632735, г. Купино, ул. Железнодорожная, 26/3",54.358895,77.279171,8:00:00 AM,9:00:00 PM
627,54 Барабинск Карла Маркса 102,Холди,"632300, г. Барабинск, ул. Карла Маркса, 102",55.350469,78.348625,8:00:00 AM,9:00:00 PM
628,54 Новосибирск Дзержинского 2/2,Холидей Классик,"630112, г. Новосибирск, пр. Дзержинского, д. 2/2",55.043933,82.953416,8:00:00 AM,12:00:00 AM
629,54 Новосибирск Шукшина 19,Холидей Классик,"630068, г. Новосибирск, ул. Шукшина, 19",54.937965,83.120251,8:00:00 AM,12:00:00 AM
630,42К Яя Школьная 3а  ,Холди,"652100, пгт. Яя, ул. Школьная, 3а   ",56.202446,86.431459,8:00:00 AM,9:00:00 PM
632,42К Белово Доватора 1,Холди,"652616, г. Белово, ул. Доватора, д. 1",54.370368,86.360869,8:00:00 AM,9:00:00 PM
633,22 Славгород Славгородское Октябрьская 2/6,Холди,"658823, г. Славгород, с. Славгородское, ул. Октябрьская, 2/6",52.99932,78.645904,8:00:00 AM,9:00:00 PM
636,70 Томск Сергея Лазо 16/1,Холди,"634063, г. Томск, ул. Сергея Лазо, 16/1",56.516998,85.032216,8:00:00 AM,10:00:00 PM
638,55 Павлоградка Больничная 2а,Холди,"646760, пгт. Павлоградка, ул. Больничная, 2а",54.207416,73.559454,9:00:00 AM,10:00:00 PM
639,55 Нововаршавка Есенина 17,Холди,"646830, р.п. Нововаршавка, ул. Есенина, 17",54.170934,74.687882,8:00:00 AM,9:00:00 PM
640,42К Калтан Комсомольская 85,Холди,"652740, г. Калтан, ул. Комсомольская, 85",53.507858,87.27416,8:00:00 AM,9:00:00 PM
641,22 Тюменцево Центральный 7б,Холди,"658580, с. Тюменцево, пер. Центральный, 7б",53.316865,81.502322,8:00:00 AM,9:00:00 PM
642,22 Родино Ленина 200,Холди,"659780, с. Родино, ул. Ленина, 200",52.493428,80.202451,8:00:00 AM,9:00:00 PM
643,42Н Новокузнецк Белана  39,Холди,"654000, г. Новокузнецк, ул. Белана, 39",53.772812,87.131211,8:00:00 AM,9:00:00 PM
647,54 Новосибирск Немировича-Данченко 40,Холди,"630048, г. Новосибирск, ул. Немировича-Данченко, д. 40",54.97129,82.87837,8:00:00 AM,9:00:00 PM
648,42К Тисуль Ленина 45,Холди,"652210, пгт. Тисуль, ул. Ленина, д. 45",55.765904,88.312738,8:00:00 AM,9:00:00 PM
653,54 Новосибирск Троллейная 17/1,Холди,"630108, г. Новосибирск, ул. Троллейная, д.17/1",54.988014,82.858652,8:00:00 AM,9:00:00 PM
655,42К Крапивинский Советская 31,Холди,"652440, пгт. Крапивинский, ул. Советская, д. 31",55.002418,86.788899,8:00:00 AM,9:00:00 PM
656,42 Мыски 50 лет Пионерии 2Б,Холди,"652842, г. Мыски, ул. 50 лет Пионерии, д. 2Б",53.729313,87.72047,8:00:00 AM,9:00:00 PM
659,70 Каргасок Лесная 42,Холди,"636700, с. Каргасок, ул. Лесная, д. 42",59.055645,80.861482,8:00:00 AM,9:00:00 PM
660,70 Колпашево Кирова 7,Холди,"636460, г. Колпашево, ул. Кирова, д. 7",58.312343,82.907844,8:00:00 AM,9:00:00 PM
661,24 Ачинск 3-й мкр 39А,Холди,"662156, г. Ачинск, ул. 3-й мкр, д. 39А",56.269496,90.495231,8:00:00 AM,9:00:00 PM
662,24 Боготол Комсомольская 9 (пом. 3),Холди,"662063, г. Боготол, ул. Комсомольская, д. 9 (пом. 3)",56.199211,89.544023,8:00:00 AM,9:00:00 PM
663,22 Волчиха Ленина 240,Холди,"658930, с. Волчиха, ул. Ленина, д. 240",52.015021,80.361489,8:00:00 AM,9:00:00 PM
664,42Н Новокузнецк Вокзальная 8-А,Холди,"654029, г. Новокузнецк, ул. Вокзальная, д. 8-А",53.744631,87.111933,8:00:00 AM,9:00:00 PM
665,42К Кемерово Ленина 59А,Холидей Классик,"650066, г. Кемерово, пр-т Ленина, д. 59А, пом. 38, 18",55.344608,86.071711,8:00:00 AM,12:00:00 AM
668,54 Новосибирск 1-е Мочищенское 20,Холди,"630123, г. Новосибирск, ш. 1-е Мочищенское, д. 20",55.090835,82.895259,8:00:00 AM,9:00:00 PM
669,55 Муромцево 30 лет Победы 48,Холди,"646430, р.п. Муромцево, ул. 30 лет Победы, д. 48",56.37017,75.23837,8:00:00 AM,9:00:00 PM
670,55 Тюкалинск 30 лет Победы 35,Холди,"646330, г. Тюкалинск, ул. 30 лет Победы,  д. 35",55.873617,72.196539,8:00:00 AM,9:00:00 PM
672,22 Барнаул Антона Петрова 208Б,Холди,"656054, г. Барнаул, ул. Антона Петрова, д. 208Б",53.360872,83.692729,8:00:00 AM,9:00:00 PM
673,54 Новосибирск Марата 2,Холди,"630037, г. Новосибирск, ул. Марата, д. 2, пом. 1",54.977883,83.098566,8:00:00 AM,9:00:00 PM
675,54 Татарск Школьный 5А,Холди,"632122, г. Татарск, пер. Школьный, д. 5А",55.221024,75.992002,8:00:00 AM,9:00:00 PM
676,54 Новосибирск Адриена Лежена 9/4,Холди,"630089, г. Новосибирск, ул. Адриена Лежена, д. 9/4",55.042024,82.970762,8:00:00 AM,9:00:00 PM
678,54 Бердск Черемушная 4/1,Холди,"633009, г. Бердск, ул. Черемушная,  д. 4/1",54.747709,83.047335,8:00:00 AM,9:00:00 PM
679,54 Искитим Лермонтова 51,Холди,"633203, г. Искитим, ул. Лермонтова, д. 51",54.632577,83.307109,8:00:00 AM,9:00:00 PM
